{
"type": "FeatureCollection",
"name": "indian_cities",
"crs": { "type": "name", "properties": { "name": "urn:ogc:def:crs:OGC:1.3:CRS84" } },
"features": [
{ "type": "Feature", "properties": { "city": "Mumbai", "population": 12478447, "latitude": 19.076, "longitude": 72.8777 }, "geometry": { "type": "Point", "coordinates": [ 72.8777, 19.076 ] } },
{ "type": "Feature", "properties": { "city": "Delhi", "population": 11034555, "latitude": 28.7041, "longitude": 77.1025 }, "geometry": { "type": "Point", "coordinates": [ 77.1025, 28.7041 ] } },
{ "type": "Feature", "properties": { "city": "Bangalore", "population": 8443675, "latitude": 12.9716, "longitude": 77.5946 }, "geometry": { "type": "Point", "coordinates": [ 77.5946, 12.9716 ] } },
{ "type": "Feature", "properties": { "city": "Hyderabad", "population": 6809970, "latitude": 17.385, "longitude": 78.4867 }, "geometry": { "type": "Point", "coordinates": [ 78.4867, 17.385 ] } },
{ "type": "Feature", "properties": { "city": "Ahmedabad", "population": 5570585, "latitude": 23.0225, "longitude": 72.5714 }, "geometry": { "type": "Point", "coordinates": [ 72.5714, 23.0225 ] } }
]
}
